站名,站号,经度,纬度,2019年,距平,历史排位,
修水,57598,114.5833,29.0333,1343.8,-19.2,46,-0.85,正常,
铜鼓,57694,114.3667,28.5333,1839.6,-2,27,-0.10,正常,
宜丰,57696,114.7667,28.3833,1701.8,-7,33,-0.37,正常,
万载,57698,114.4333,28.1,1858.0,6.4,16,0.33,正常,
上高,57699,114.9667,28.2333,1749.0,0.5,26,0.03,正常,
萍乡,57786,113.85,27.6333,2079.9,23.1,03,1.42,偏多,
莲花,57789,113.95,27.1333,2179.4,31,03,1.76,显著偏多,
分宜,57792,114.6833,27.8167,1818.4,9.8,14,0.53,正常,
宜春,57793,114.3667,27.7833,2047.5,22.3,06,1.23,偏多,
渝水,57796,114.8833,27.8333,1840.0,12.8,14,0.67,正常,
安福,57798,114.6,27.3833,1728.5,9.2,16,0.54,正常,
夏坪,57883,114.2833,26.75,1931.4,14.1,07,0.77,正常,
永新,57891,114.25,26.9333,1984.1,24.7,06,1.48,偏多,
井冈山,57894,114.1667,26.5833,1916.6,-1.2,30,-0.07,正常,
万安,57895,114.7833,26.4667,1535.6,3.1,21,0.15,正常,
遂川,57896,114.5167,26.3333,1683.1,10.4,16,0.58,正常,
泰和,57899,114.8833,26.8167,1484.8,1.4,22,0.07,正常,
崇义,57990,114.3167,25.7,1774.9,9.5,19,0.54,正常,
上犹,57991,114.5667,25.8167,1493.8,0.1,28,0.01,正常,
南康,57992,114.7333,25.6667,1506.9,2.4,25,0.14,正常,
赣县,57993,115.0167,25.8667,1639.4,12.3,14,0.57,正常,
大余,57994,114.35,25.4,1734.4,8,15,0.50,正常,
信丰,57995,114.8667,25.35,1773.0,16.9,12,0.85,正常,
九江,58502,116.0167,29.6667,1144.6,-22.4,49,-1.10,偏少,
瑞昌,58503,115.6667,29.7,1216.3,-19.3,48,-1.03,偏少,
庐山,58506,115.9833,29.5667,1405.1,-31.9,56,-1.50,偏少,
武宁,58507,115.1167,29.25,1194.7,-22.3,51,-1.00,正常,
德安,58508,115.7333,29.35,1084.9,-26.4,52,-1.32,偏少,
永修,58509,115.8167,29.05,1437.4,-11.2,35,-0.55,正常,
湖口,58510,116.2167,29.6833,1047.6,-28.1,56,-1.48,偏少,
彭泽,58512,116.5447,29.8933,1126.2,-26.9,52,-1.20,偏少,
庐山市,58514,116.0333,29.45,1055.7,-30,56,-1.38,偏少,
都昌,58517,116.1833,29.25,1195.4,-22.3,49,-0.97,正常,
鄱阳,58519,116.6667,29,1628.3,-2.6,27,-0.12,正常,
景德镇,58527,117.2,29.3,1522.4,-19.3,46,-0.93,正常,
婺源,58529,117.85,29.2833,1919.1,-5,30,-0.21,正常,
靖安,58600,115.3667,28.85,1467.0,-16.1,45,-0.81,正常,
奉新,58601,115.35,28.7167,1343.5,-23.5,51,-1.32,偏少,
安义,58602,115.55,28.85,1412.2,-13.5,44,-0.67,正常,
高安,58605,115.3833,28.4167,1766.7,1.4,22,0.08,正常,
南昌,58606,115.9,28.5833,1613.5,-5.3,26,-0.26,正常,
樟树,58608,115.55,27.9833,1835.4,4,19,0.23,正常,
丰城,58609,115.8167,28.2333,1829.8,4.5,18,0.23,正常,
余干,58612,116.6833,28.6833,1471.1,-15.6,43,-0.74,正常,
进贤,58614,116.2833,28.4,1662.5,-7.6,32,-0.45,正常,
万年,58615,117.0667,28.6833,1522.2,-18.8,47,-0.92,正常,
余江,58616,116.8167,28.2,1966.7,3.9,20,0.20,正常,
临川,58619,116.2667,27.9,1980.8,7.2,14,0.36,正常,
东乡,58618,116.6,28.2667,1815.4,-4.1,25,-0.21,正常,
乐平,58620,117.1,29.0167,1759.5,-7.4,29,-0.34,正常,
德兴,58622,117.5833,28.95,1887.9,-7.7,30,-0.38,正常,
弋阳,58624,117.45,28.3833,1930.6,-6,30,-0.29,正常,
横峰,58625,117.6,28.4167,1857.5,-6.5,31,-0.31,正常,
贵溪,58626,117.2333,28.3167,1857.5,-6.7,30,-0.34,正常,
鹰潭,58627,117.05,28.3167,1806.1,-8.3,46,-0.42,正常,
铅山,58629,117.7,28.2833,1987.5,2.1,23,0.11,正常,
玉山,58634,118.25,28.6833,2008.2,5.6,22,0.27,正常,
广丰,58635,118.2,28.45,1944.6,10.4,14,0.50,正常,
上饶,58637,117.9833,28.45,1834.8,-3.4,27,-0.16,正常,
新建,58693,115.8333,28.7167,1610.6,-2.1,26,-0.11,正常,
新干,58701,115.4,27.75,1673.8,3.8,25,0.19,正常,
峡江,58704,115.35,27.5833,1902.3,15,13,0.74,正常,
永丰,58705,115.4167,27.3333,2075.5,19.2,06,0.93,正常,
乐安,58706,115.8333,27.4167,1878.8,7.3,22,0.39,正常,
吉水,58707,115.1333,27.2167,1936.8,16.7,09,0.89,正常,
崇仁,58710,116.05,27.7667,1959.9,7.4,20,0.41,正常,
金溪,58712,116.7833,27.9167,1997.6,3.6,24,0.18,正常,
资溪,58713,117.0667,27.7167,2501.1,19,06,0.91,正常,
宜黄,58714,116.2333,27.55,2060.9,11,13,0.56,正常,
南城,58715,116.65,27.5833,1905.3,4.8,17,0.21,正常,
南丰,58718,116.5333,27.2167,1840.1,1,25,0.04,正常,
黎川,58719,116.9167,27.3,1931.7,2.3,26,0.10,正常,
兴国,58804,115.35,26.2833,1445.3,-8.4,35,-0.39,正常,
宁都,58806,116.0167,26.4833,2068.2,12,13,0.46,正常,
广昌,58813,116.3,26.8333,2148.3,20.1,13,0.80,正常,
石城,58814,116.35,26.35,2021.0,11.2,14,0.45,正常,
瑞金,58903,116.0167,25.9167,1619.4,-1.7,32,-0.09,正常,
于都,58905,115.4167,25.9667,1645.6,7.3,20,0.34,正常,
会昌,58906,115.8,25.6,1690.7,3.6,21,0.21,正常,
安远,58907,115.4,25.15,1548.3,-0.4,30,-0.02,正常,
全南,59091,114.5167,24.75,1906.2,13.4,12,0.83,正常,
龙南,59092,114.8,24.8667,1504.5,-1.5,31,-0.08,正常,
定南,59093,115.0333,24.7833,1854.3,16.1,11,0.92,正常,
寻乌,59102,115.65,24.95,1784.5,11,14,0.53,正常,
吉安,57799,114.9167,27.05,2028.2,24.5,06,1.16,偏多,
南昌县,58607,115.9667,28.5667,1595.2,-1.7,23,-0.08,正常,
广信,58623,117.9,28.4667,1888.7,2.5,42,0.12,正常,
